[{"hotel_name": "Four Seasons Hotel Singapore (SG Clean,Staycation Approved)", "hotel_rating": 9.2, "scaled_polarity": 7.187275, "coordinates": [103.82858683949216, 1.3052985722052628]}, {"hotel_name": "Resort Shangri-La's Rasa Sentosa Resort & Spa (SG Clean)", "hotel_rating": 8.6, "scaled_polarity": 6.950395, "coordinates": [103.80981923012519, 1.2581057091138883]}, {"hotel_name": "Carlton Hotel Singapore (SG Clean,Staycation Approved)", "hotel_rating": 8.8, "scaled_polarity": 6.947375, "coordinates": [103.8529865307332, 1.2970692799955348]}, {"hotel_name": "W Singapore - Sentosa Cove (SG Clean)", "hotel_rating": 8.6, "scaled_polarity": 6.94281, "coordinates": [103.84233469731241, 1.24654313023255]}, {"hotel_name": "Ramada by Wyndham Singapore at Zhongshan Park (SG Clean)", "hotel_rating": 8.1, "scaled_polarity": 6.877885, "coordinates": [103.84646438197132, 1.3272922960659637]}, {"hotel_name": "PARKROYAL COLLECTION Marina Bay,Singapore (SG Clean,Staycation Approved)", "hotel_rating": 8.4, "scaled_polarity": 6.714320000000001, "coordinates": [103.85711839731226, 1.2920067212371737]}, {"hotel_name": "Capella Singapore (SG Clean)", "hotel_rating": 8.9, "scaled_polarity": 6.704605, "coordinates": [103.824198883818, 1.2499796298936434]}, {"hotel_name": "Aparthotel Shangri-La Apartments (SG Clean,Staycation Approved)", "hotel_rating": 8.6, "scaled_polarity": 6.689309999999999, "coordinates": [103.82670018381783, 1.3099811019259089]}, {"hotel_name": "PARKROYAL COLLECTION Pickering,Singapore (SG Clean,Staycation Approved)", "hotel_rating": 9.0, "scaled_polarity": 6.675459999999999, "coordinates": [103.8461122549827, 1.2860230217456008]}, {"hotel_name": "Pan Pacific Singapore (SG Clean,Staycation Approved)", "hotel_rating": 9.0, "scaled_polarity": 6.670015, "coordinates": [103.85837305850627, 1.2934592781256362]}]