[{"hotel_name": "Four Seasons Hotel Singapore (SG Clean,Staycation Approved)", "hotel_rating": 9.2, "scaled_polarity": 7.187275, "coordinates": [103.82858683949216, 1.3052985722052628]}, {"hotel_name": "The Ritz-Carlton,Millenia Singapore (SG Clean)", "hotel_rating": 9.2, "scaled_polarity": 6.668215, "coordinates": [103.86009943964177, 1.2912261257536326]}, {"hotel_name": "Andaz Singapore \u2013 A Concept by Hyatt (SG Clean)", "hotel_rating": 9.1, "scaled_polarity": 5.0, "coordinates": [103.85817019731229, 1.2995327509812002]}, {"hotel_name": "Shangri-La Hotel Singapore (SG Clean,Staycation Approved)", "hotel_rating": 9.1, "scaled_polarity": 6.648595, "coordinates": [103.82633059731222, 1.3114876496975376]}, {"hotel_name": "Pan Pacific Singapore (SG Clean,Staycation Approved)", "hotel_rating": 9.0, "scaled_polarity": 6.670015, "coordinates": [103.85837305850627, 1.2934592781256362]}, {"hotel_name": "PARKROYAL COLLECTION Pickering,Singapore (SG Clean,Staycation Approved)", "hotel_rating": 9.0, "scaled_polarity": 6.675459999999999, "coordinates": [103.8461122549827, 1.2860230217456008]}, {"hotel_name": "Marina Bay Sands (SG Clean)", "hotel_rating": 9.0, "scaled_polarity": 6.334005, "coordinates": [103.86098773962462, 1.2849072539626836]}, {"hotel_name": "Capella Singapore (SG Clean)", "hotel_rating": 8.9, "scaled_polarity": 6.704605, "coordinates": [103.824198883818, 1.2499796298936434]}, {"hotel_name": "Aparthotel Pan Pacific Serviced Suites Beach Road (SG Clean,Staycation Approved)", "hotel_rating": 8.9, "scaled_polarity": 6.45836, "coordinates": [103.86004819731225, 1.2998211291793353]}, {"hotel_name": "Carlton Hotel Singapore (SG Clean,Staycation Approved)", "hotel_rating": 8.8, "scaled_polarity": 6.947375, "coordinates": [103.8529865307332, 1.2970692799955348]}]