[{"hotel_name": "Carlton Hotel Bangkok Sukhumvi", "hotel_rating": 9.3, "scaled_polarity": 6.221075000000001, "coordinates": [100.56449479733939, 13.734884953348555]}, {"hotel_name": "Sheraton Grande Sukhumvit,a Luxury Collection Hotel,Bangkok", "hotel_rating": 9.2, "scaled_polarity": 6.28599, "coordinates": [100.5590304531634, 13.73755609733326]}, {"hotel_name": "Siam Kempinski Hotel Bangkok", "hotel_rating": 9.2, "scaled_polarity": 6.014595, "coordinates": [100.53531565500984, 13.748992554426511]}, {"hotel_name": "Chatrium Hotel Riverside Bangkok", "hotel_rating": 9.1, "scaled_polarity": 6.495235, "coordinates": [100.50952086850411, 13.711257629203072]}, {"hotel_name": "Oakwood Suites Bangkok - SHA Certified", "hotel_rating": 9.1, "scaled_polarity": 6.3342149999999995, "coordinates": [100.56853812432819, 13.72875625907328]}, {"hotel_name": "Pathumwan Princess", "hotel_rating": 8.9, "scaled_polarity": 6.35403, "coordinates": [100.52963365500989, 13.743544980257349]}, {"hotel_name": "Bangkok Marriott Hotel Sukhumvi", "hotel_rating": 8.9, "scaled_polarity": 6.175285000000001, "coordinates": [100.58040645131697, 13.72369707654754]}, {"hotel_name": "The Quarter Ari by UHG", "hotel_rating": 8.9, "scaled_polarity": 6.24516, "coordinates": [100.54685644193998, 13.784845622235924]}, {"hotel_name": "lebua at State Tower (The World\u2019s First Vertical Destination)", "hotel_rating": 8.8, "scaled_polarity": 5.0, "coordinates": [100.5168609108337, 13.72180679191372]}, {"hotel_name": "Centara Grand At Centralworld", "hotel_rating": 8.7, "scaled_polarity": 6.31476, "coordinates": [100.53870478199876, 13.747885033835345]}]